{"version": 0.6, "generator": "Overpass API 0.7.62.5 1bd436f1", "osm3s": {"timestamp_osm_base": "2025-04-14T16:24:27Z", "copyright": "The data included in this document is from www.openstreetmap.org. The data is made available under ODbL."}, "elements": [{"type": "node", "id": 4275708290, "lat": 41.711541, "lon": 44.7574824, "tags": {"internet_access": "wlan", "leisure": "fitness_centre", "level": "1", "name": "\u10d0\u10e1\u10de\u10e0\u10d8\u10d0", "name:en": "Aspria", "name:ka": "\u10d0\u10e1\u10de\u10e0\u10d8\u10d0", "opening_hours": "24/7"}}, {"type": "node", "id": 4337632302, "lat": 41.7887445, "lon": 44.8187928, "tags": {"addr:street": "\u10d2\u10dd\u10d1\u10e0\u10dd\u10dc\u10d8\u10eb\u10d8\u10e1 \u10e5. (Gobronidze Str.)", "leisure": "fitness_centre", "name": "BLUE FITNES"}}, {"type": "node", "id": 4412908090, "lat": 41.7255748, "lon": 44.7637897, "tags": {"charge": "20Lari", "fee": "yes", "leisure": "fitness_centre", "name": "\u10d0\u10e3\u10d6\u10d8", "name:de": "Schwimmbad Ausi", "name:en": "Pool - Ausi", "name:ka": "\u10d0\u10e3\u10d6\u10d8", "sport": "swimming"}}, {"type": "node", "id": 4423619089, "lat": 41.772932, "lon": 44.7746576, "tags": {"check_date": "2024-09-20", "internet_access": "wlan", "leisure": "fitness_centre", "name": "\u10e1\u10de\u10d0\u10e0\u10e2\u10d0 \u10e4\u10d8\u10e2\u10dc\u10d4\u10e1\u10d8", "name:en": "sparta fitness", "name:ka": "\u10e1\u10de\u10d0\u10e0\u10e2\u10d0 \u10e4\u10d8\u10e2\u10dc\u10d4\u10e1\u10d8", "opening_hours": "Mo-Su 09:00-00:00", "phone": "+995598555670"}}, {"type": "node", "id": 4564104091, "lat": 41.7130769, "lon": 44.7595431, "tags": {"addr:housenumber": "5\u10d0", "addr:street": "\u10dc\u10d8\u10d9\u10dd\u10da\u10dd\u10d6 \u10e7\u10d8\u10e4\u10e8\u10d8\u10eb\u10d8\u10e1 \u10e5\u10e3\u10e9\u10d0", "internet_access": "wlan", "leisure": "fitness_centre", "name": "\u10d8\u10dd\u10d2\u10d0\u10e1 \u10e1\u10d0\u10ee\u10da\u10d8", "name:en": "Yoga House", "phone": "551115288", "website": "https://www.yoga.ge/"}}, {"type": "node", "id": 4583147731, "lat": 41.7169488, "lon": 44.7916682, "tags": {"addr:housenumber": "150", "addr:postcode": "0112", "addr:street": "\u10d3\u10d0\u10d5\u10d8\u10d7 \u10d0\u10e6\u10db\u10d0\u10e8\u10d4\u10dc\u10d4\u10d1\u10da\u10d8\u10e1 \u10d2\u10d0\u10db\u10d6\u10d8\u10e0\u10d8", "leisure": "fitness_centre", "name": "\u10e0\u10d4\u10db\u10d9\u10d8\u10dd\u10dc\u10d7\u10d0 \u10d0\u10d9\u10d0\u10d3\u10d4\u10db\u10d8\u10d0", "name:en": "Champions Academy", "name:ka": "\u10e0\u10d4\u10db\u10d9\u10d8\u10dd\u10dc\u10d7\u10d0 \u10d0\u10d9\u10d0\u10d3\u10d4\u10db\u10d8\u10d0", "website": "https://champ.ge/"}}, {"type": "node", "id": 4726234589, "lat": 41.7119852, "lon": 44.7551474, "tags": {"check_date": "2024-02-09", "leisure": "fitness_centre", "name": "City Fitness", "name:en": "City Fitness"}}, {"type": "node", "id": 4785467222, "lat": 41.7982549, "lon": 44.8214991, "tags": {"check_date": "2023-09-03", "leisure": "fitness_centre", "name": "\u10f0\u10d0\u10e0\u10d3 \u10d5\u10d4\u10d8", "name:en": "hard way", "name:ka": "\u10f0\u10d0\u10e0\u10d3 \u10d5\u10d4\u10d8"}}, {"type": "node", "id": 4941560123, "lat": 41.6832902, "lon": 44.8414009, "tags": {"leisure": "fitness_centre", "name:en": "World Feetness", "opening_hours": "24/7"}}, {"type": "node", "id": 5066620370, "lat": 41.6746392, "lon": 44.8261668}, {"type": "node", "id": 5066620371, "lat": 41.6746877, "lon": 44.8263055}, {"type": "node", "id": 5066620372, "lat": 41.6742651, "lon": 44.8265692}, {"type": "node", "id": 5066620373, "lat": 41.6741988, "lon": 44.8264428}, {"type": "node", "id": 5066660639, "lat": 41.6742182, "lon": 44.8264984}, {"type": "node", "id": 5066665934, "lat": 41.6743945, "lon": 44.8265826}, {"type": "node", "id": 5496374677, "lat": 41.7236683, "lon": 44.716712, "tags": {"check_date": "2024-02-28", "contact:email": "info@oktopus.ge", "contact:facebook": "https://www.facebook.com/Oktopusfitness/", "contact:instagram": "https://www.instagram.com/oktopusfitness/", "contact:phone": "+995 32 230 18 88", "contact:website": "https://www.oktopus.ge", "contact:youtube": "https://www.youtube.com/channel/UC-aVBkNDKG9HAkneDZvtzJw", "currency:BCH": "yes", "currency:BTG": "yes", "currency:DASH": "yes", "currency:LTC": "yes", "currency:USDT": "yes", "currency:XBT": "yes", "currency:ZEC": "yes", "leisure": "fitness_centre", "name": "\u10dd\u10d9\u10e2\u10dd\u10de\u10e3\u10e1 \u10e4\u10d8\u10e2\u10dc\u10d4\u10e1 \u10d9\u10da\u10e3\u10d1\u10d8", "name:en": "Oktopus Fitness Club", "name:ka": "\u10dd\u10d9\u10e2\u10dd\u10de\u10e3\u10e1 \u10e4\u10d8\u10e2\u10dc\u10d4\u10e1 \u10d9\u10da\u10e3\u10d1\u10d8", "opening_hours": "24/7", "payment:lightning": "yes", "payment:onchain": "yes"}}, {"type": "node", "id": 5601484023, "lat": 41.7219592, "lon": 44.7672219, "tags": {"addr:housenumber": "41", "addr:street": "\u10e1\u10e3\u10da\u10ee\u10d0\u10dc \u10ea\u10d8\u10dc\u10ea\u10d0\u10eb\u10d8\u10e1 \u10e5\u10e3\u10e9\u10d0", "internet_access": "wlan", "leisure": "fitness_centre", "name": "Fit Line"}}, {"type": "node", "id": 5746004280, "lat": 41.7298612, "lon": 44.7680845, "tags": {"check_date": "2023-10-12", "contact:phone": "+995 599 97 74 80", "contact:website": "https://powermax.ge", "email": "ge.powermax@gmail.com", "leisure": "fitness_centre", "name": "\u10de\u10d0\u10e3\u10d4\u10e0 \u10db\u10d0\u10e5\u10e1", "name:en": "Power Max", "name:ka": "\u10de\u10d0\u10e3\u10d4\u10e0 \u10db\u10d0\u10e5\u10e1", "opening_hours": "Mo-Fr 07:00-23:30; Sa-Su 09:00-22:00"}}, {"type": "node", "id": 5936826785, "lat": 41.7929896, "lon": 44.8078943, "tags": {"contact:facebook": "https://www.facebook.com/Aquacentre.official/", "leisure": "fitness_centre", "name": "\u10d0\u10d9\u10d5\u10d0 \u10ea\u10d4\u10dc\u10e2\u10e0\u10d8 \u10d3\u10d0 \u10e4\u10d8\u10e2\u10dc\u10d4\u10e1\u10d8", "name:en": "Aqua Centre & Fitness", "sport": "fitness;swimming"}}, {"type": "node", "id": 6076827527, "lat": 41.7425114, "lon": 44.8323187, "tags": {"leisure": "fitness_centre"}}, {"type": "node", "id": 6361891385, "lat": 41.7222008, "lon": 44.7677983, "tags": {"internet_access": "wlan", "leisure": "fitness_centre", "name": "Snap-Fitness", "opening_hours": "24/7"}}, {"type": "node", "id": 6465428985, "lat": 41.707068, "lon": 44.7877413, "tags": {"leisure": "fitness_centre", "name:ru": "\u042d\u043b\u0438\u0442\u0430"}}, {"type": "node", "id": 6595968579, "lat": 41.6770156, "lon": 44.8740818, "tags": {"leisure": "fitness_centre"}}, {"type": "node", "id": 8002212201, "lat": 41.7132686, "lon": 44.7662651}, {"type": "node", "id": 8002212202, "lat": 41.7132584, "lon": 44.766495}, {"type": "node", "id": 8002212203, "lat": 41.7130178, "lon": 44.7664726}, {"type": "node", "id": 8002212204, "lat": 41.7130197, "lon": 44.7664216}, {"type": "node", "id": 8002212205, "lat": 41.7129765, "lon": 44.7664186}, {"type": "node", "id": 8002212206, "lat": 41.7129834, "lon": 44.76624}, {"type": "node", "id": 9081481818, "lat": 41.7064105, "lon": 44.7723247, "tags": {"check_date": "2024-08-26", "leisure": "fitness_centre", "name": "\u10ec\u10e0\u10d4", "name:en": "Tsre", "name:ka": "\u10ec\u10e0\u10d4"}}, {"type": "node", "id": 9846463093, "lat": 41.7907105, "lon": 44.8186598, "tags": {"addr:city": "\u10d7\u10d1\u10d8\u10da\u10d8\u10e1\u10d8", "addr:housenumber": "1", "addr:street": "\u10d0\u10da\u10d4\u10d9\u10dd \u10d2\u10dd\u10d1\u10e0\u10dd\u10dc\u10d8\u10eb\u10d8\u10e1 \u10e5\u10e3\u10e9\u10d0", "contact:facebook": "https://www.facebook.com/SakemataFitness", "leisure": "fitness_centre", "name": "Sakemata Fitness", "name:ka": "\u10e1\u10d0\u10d9\u10d4\u10db\u10d0\u10e2\u10d0 \u10e4\u10d8\u10e2\u10dc\u10d4\u10e1\u10d8", "phone": "+995322195511", "sport": "fitness;gym", "website": "https://www.sakematafitness.ge/ka"}}, {"type": "node", "id": 10250227949, "lat": 41.7009908, "lon": 44.767314, "tags": {"leisure": "fitness_centre", "name": "Underground Gym", "sport": "fitness", "website": "https://www.facebook.com/UndegroundGym/"}}, {"type": "node", "id": 10276334109, "lat": 41.7314421, "lon": 44.7632155, "tags": {"addr:housenumber": "37", "addr:street": "\u10dd\u10d7\u10d0\u10e0 \u10dd\u10dc\u10d8\u10d0\u10e8\u10d5\u10d8\u10da\u10d8\u10e1 \u10e5\u10e3\u10e9\u10d0", "coffee": "yes", "internet_access": "wlan", "leisure": "fitness_centre", "name:en": "Tbilisi yoga villa", "name:ru": "\u0422\u0431\u0438\u043b\u0438\u0441\u0438 \u0439\u043e\u0433\u0430 \u0432\u0438\u043b\u043b\u0430", "sport": "yoga", "website": "https://tbilisiyoga.com/en/villa"}}, {"type": "node", "id": 10276334110, "lat": 41.7063231, "lon": 44.7685766, "tags": {"addr:housenumber": "14", "addr:postcode": "0179", "addr:street": "\u10e8\u10d0\u10da\u10d5\u10d0 \u10e0\u10d0\u10d3\u10d8\u10d0\u10dc\u10d8\u10e1 \u10e5\u10e3\u10e9\u10d0", "check_date": "2024-03-08", "leisure": "fitness_centre", "name": "\u10d7\u10d1\u10d8\u10da\u10d8\u10e1\u10d8 \u10d8\u10dd\u10d2\u10d0 \u10da\u10dd\u10e4\u10e2\u10d8", "name:en": "Tbilisi Yoga Loft", "name:ka": "\u10d7\u10d1\u10d8\u10da\u10d8\u10e1\u10d8 \u10d8\u10dd\u10d2\u10d0 \u10da\u10dd\u10e4\u10e2\u10d8", "name:ru": "\u0422\u0431\u0438\u043b\u0438\u0441\u0438 \u0439\u043e\u0433\u0430 \u043b\u043e\u0444\u0442", "website": "https://tbilisiyoga.com/en/loft"}}, {"type": "node", "id": 10766773309, "lat": 41.724644, "lon": 44.7385454}, {"type": "node", "id": 10788254464, "lat": 41.7223672, "lon": 44.7147611, "tags": {"leisure": "fitness_centre", "name": "MosesFit", "name:ka": "\u10db\u10dd\u10e1\u10d4\u10e1\u10e4\u10d8\u10e2", "sport": "crossfit", "website": "https://www.facebook.com/MosesCrossfit/"}}, {"type": "node", "id": 10796733506, "lat": 41.7221845, "lon": 44.7147329, "tags": {"leisure": "fitness_centre", "name": "\u10da\u10d4\u10d5\u10d8\u10dd\u10e1\u10d0 \u10db\u10dd\u10eb\u10e0\u10d0\u10dd\u10d1\u10d8\u10e1 \u10e1\u10d8\u10d5\u10e0\u10ea\u10d4", "name:en": "Leviosa", "sport": "dance;pilates;karate", "website": "https://www.facebook.com/leviosamovelab/about"}}, {"type": "node", "id": 10803314165, "lat": 41.7246384, "lon": 44.7384806}, {"type": "node", "id": 10803314167, "lat": 41.724522, "lon": 44.7386758}, {"type": "node", "id": 10803314168, "lat": 41.7245121, "lon": 44.7385676}, {"type": "node", "id": 10803314174, "lat": 41.7244447, "lon": 44.7386882}, {"type": "node", "id": 10803314175, "lat": 41.7244539, "lon": 44.7387916}, {"type": "node", "id": 10803314192, "lat": 41.724572, "lon": 44.738287}, {"type": "node", "id": 10803314193, "lat": 41.7246203, "lon": 44.7382792}, {"type": "node", "id": 10803314196, "lat": 41.7243382, "lon": 44.7385423}, {"type": "node", "id": 10803314197, "lat": 41.7243641, "lon": 44.7388302}, {"type": "node", "id": 10803344314, "lat": 41.7246411, "lon": 44.7385105, "tags": {"entrance": "main", "level": "0", "level:ref": "LG", "wheelchair": "yes"}}, {"type": "node", "id": 10844889065, "lat": 41.7198533, "lon": 44.7160627, "tags": {"contact:facebook": "tidaniplius", "leisure": "fitness_centre", "name": "\u10d7\u10d8\u10d3\u10d0\u10dc\u10d8 +", "name:en": "Tidani +", "name:ka": "\u10d7\u10d8\u10d3\u10d0\u10dc\u10d8 +", "sport": "fitness", "website": "https://tidanigym.ge/"}}, {"type": "node", "id": 10889397607, "lat": 41.7336391, "lon": 44.7693277, "tags": {"addr:housenumber": "13", "addr:street": "\u10d8\u10e3\u10e0\u10d8 \u10d2\u10d0\u10d2\u10d0\u10e0\u10d8\u10dc\u10d8\u10e1 \u10e5\u10e3\u10e9\u10d0", "leisure": "fitness_centre", "level": "2", "name": "\u10d8\u10dd\u10d2\u10d0\u10d5\u10d8\u10da\u10d8", "name:en": "Yogawill", "opening_hours": "Mo-Fr 08:00-23:00"}}, {"type": "node", "id": 10905732411, "lat": 41.7210556, "lon": 44.716038, "tags": {"contact:facebook": "maomao2000", "leisure": "fitness_centre", "name": "\u10d3\u10d8\u10dc\u10d0\u10db\u10d8\u10d9\u10d0", "name:en": "Dynamic", "name:ka": "\u10d3\u10d8\u10dc\u10d0\u10db\u10d8\u10d9\u10d0", "sport": "dance;fitness"}}, {"type": "node", "id": 10998482644, "lat": 41.7093319, "lon": 44.7533038, "tags": {"check_date": "2023-09-24", "contact:facebook": "AspriaFitness", "leisure": "fitness_centre", "name": "\u10d0\u10e1\u10de\u10e0\u10d8\u10d0 \u10e4\u10d8\u10e2\u10dc\u10d4\u10e1\u10d8", "name:en": "Aspria Fitness", "name:ka": "\u10d0\u10e1\u10de\u10e0\u10d8\u10d0 \u10e4\u10d8\u10e2\u10dc\u10d4\u10e1\u10d8", "sport": "fitness"}}, {"type": "node", "id": 11003216705, "lat": 41.7102417, "lon": 44.7655796, "tags": {"check_date": "2023-10-25", "leisure": "fitness_centre", "name:en": "Snap Fitness"}}, {"type": "node", "id": 11047954005, "lat": 41.7197539, "lon": 44.8028179, "tags": {"leisure": "fitness_centre"}}, {"type": "node", "id": 11104446484, "lat": 41.6765039, "lon": 44.8396789, "tags": {"leisure": "fitness_centre", "name": "Reform"}}, {"type": "node", "id": 11182369253, "lat": 41.7068753, "lon": 44.7876712, "tags": {"addr:city": "\u10d7\u10d1\u10d8\u10da\u10d8\u10e1\u10d8", "addr:country": "GE", "addr:housenumber": "8", "addr:street": "Niko Nikoladze", "fee": "yes", "leisure": "fitness_centre", "level": "0", "name": "Flow Studio", "payment:app": "yes", "payment:cards": "yes", "payment:cash": "yes", "phone": "+995 551 588 750", "sport": "yoga", "website": "https://fitbase.io/"}}, {"type": "node", "id": 11195808424, "lat": 41.7244572, "lon": 44.7307417, "tags": {"check_date": "2024-10-07", "leisure": "fitness_centre", "name": "\u10de\u10e0\u10d0\u10d8\u10db \u10e4\u10d8\u10e2\u10d8", "name:en": "Prime Fit", "name:ka": "\u10de\u10e0\u10d0\u10d8\u10db \u10e4\u10d8\u10e2\u10d8", "payment:cash": "yes", "payment:credit_cards": "yes", "payment:debit_cards": "yes", "sport": "fitness;climbing;swimming;yoga", "website": "https://primefit.ge/"}}, {"type": "node", "id": 11217670121, "lat": 41.6858192, "lon": 44.848718, "tags": {"check_date": "2024-03-24", "leisure": "fitness_centre", "name": "\u10db\u10d0\u10e2\u10e0\u10d8\u10e5\u10e1 \u10e4\u10d8\u10e2\u10dc\u10d4\u10e1\u10d8", "name:en": "Matrix Fitness", "name:ka": "\u10db\u10d0\u10e2\u10e0\u10d8\u10e5\u10e1 \u10e4\u10d8\u10e2\u10dc\u10d4\u10e1\u10d8", "opening_hours": "Mo-Su 07:30-23:30", "sport": "fitness"}}, {"type": "node", "id": 11237987607, "lat": 41.6742304, "lon": 44.8263398}, {"type": "node", "id": 11237987608, "lat": 41.6742727, "lon": 44.8263133}, {"type": "node", "id": 11237987609, "lat": 41.6742186, "lon": 44.8263472}, {"type": "node", "id": 11237987610, "lat": 41.6742425, "lon": 44.8264154}, {"type": "node", "id": 11237987611, "lat": 41.6742966, "lon": 44.8263815}, {"type": "node", "id": 11237987613, "lat": 41.6743008, "lon": 44.8266414}, {"type": "node", "id": 11237987614, "lat": 41.6742737, "lon": 44.8265638}, {"type": "node", "id": 11237987615, "lat": 41.6744564, "lon": 44.8267598}, {"type": "node", "id": 11237987616, "lat": 41.6747664, "lon": 44.8265656}, {"type": "node", "id": 11237987617, "lat": 41.6746776, "lon": 44.8263118}, {"type": "node", "id": 11237987618, "lat": 41.6742251, "lon": 44.826518}, {"type": "node", "id": 11237987619, "lat": 41.6742432, "lon": 44.8265066}, {"type": "node", "id": 11255351452, "lat": 41.7165325, "lon": 44.7770688, "tags": {"check_date": "2023-11-15", "leisure": "fitness_centre", "name": "\u10e2\u10dd\u10dc\u10e3\u10e1\u10d8", "name:en": "Tonusi", "name:ka": "\u10e2\u10dd\u10dc\u10e3\u10e1\u10d8", "opening_hours": "07:00-23:00"}}, {"type": "node", "id": 11260341967, "lat": 41.7000845, "lon": 44.7946671, "tags": {"check_date": "2024-07-26", "leisure": "fitness_centre", "name": "\u10de\u10d0\u10e3\u10d4\u10e0 \u10db\u10d0\u10e5\u10e1\u10d8", "name:en": "Power Max", "name:ka": "\u10de\u10d0\u10e3\u10d4\u10e0 \u10db\u10d0\u10e5\u10e1\u10d8"}}, {"type": "node", "id": 11263150741, "lat": 41.7148836, "lon": 44.7798845, "tags": {"leisure": "fitness_centre", "name": "Yoga Studio 9"}}, {"type": "node", "id": 11331467088, "lat": 41.6944435, "lon": 44.7936124, "tags": {"check_date": "2023-11-07", "leisure": "fitness_centre", "name": "\u10de\u10d8\u10da\u10d0\u10e2\u10d4\u10e1 \u10d7\u10d1\u10d8\u10da\u10d8\u10e1\u10d8"}}, {"type": "node", "id": 11359887326, "lat": 41.7010239, "lon": 44.7563599, "tags": {"check_date": "2023-11-18", "leisure": "fitness_centre", "opening_hours": "07:00-23:00"}}, {"type": "node", "id": 11482146769, "lat": 41.7121799, "lon": 44.7443761, "tags": {"amenity": "coworking_space", "leisure": "fitness_centre", "name:en": "Sative", "opening_hours": "Mo-Su 07:00-23:00", "phone": "+995 322 194405", "sport": "fitness;yoga", "website": "https://sative.space/"}}, {"type": "node", "id": 11484547870, "lat": 41.7325649, "lon": 44.7386745, "tags": {"addr:housenumber": "14a", "addr:postcode": "0162", "addr:street": "\u10d4\u10da\u10d2\u10e3\u10ef\u10d0 \u10d0\u10db\u10d0\u10e8\u10e3\u10d9\u10d4\u10da\u10d8\u10e1 \u10e5\u10e3\u10e9\u10d0", "leisure": "fitness_centre", "name:en": "Gymnasia", "website": "https://gymnasia.ge/"}}, {"type": "node", "id": 11484557369, "lat": 41.7126926, "lon": 44.7662494, "tags": {"addr:housenumber": "20", "addr:street": "\u10dc\u10d8\u10dc\u10dd \u10e0\u10d0\u10db\u10d8\u10e8\u10d5\u10d8\u10da\u10d8\u10e1 \u10e5\u10e3\u10e9\u10d0", "contact:instagram": "warriorstbilisi", "leisure": "fitness_centre", "level": "-1", "name:en": "Warriors", "sport": "martial_arts"}}, {"type": "node", "id": 11485439719, "lat": 41.7205197, "lon": 44.7808194, "tags": {"addr:city": "\u10d7\u10d1\u10d8\u10da\u10d8\u10e1\u10d8", "addr:housenumber": "13", "addr:street": "\u10d2\u10d8\u10dd\u10e0\u10d2\u10d8 \u10db\u10d8\u10e0\u10dd\u10e2\u10d0\u10eb\u10d8\u10e1 \u10e5\u10e3\u10e9\u10d0", "leisure": "fitness_centre", "name": "Ringside Institute", "sport": "martial_arts"}}, {"type": "node", "id": 11499395438, "lat": 41.7356486, "lon": 44.7951835, "tags": {"addr:city": "\u10d7\u10d1\u10d8\u10da\u10d8\u10e1\u10d8", "addr:housenumber": "4", "addr:street": "\u10d2\u10d8\u10dd\u10e0\u10d2\u10d8 \u10ed\u10e7\u10dd\u10dc\u10d3\u10d8\u10d3\u10d4\u10da\u10d8\u10e1 \u10e5\u10e3\u10e9\u10d0", "contact:facebook": "https://www.facebook.com/MoveclubMC", "leisure": "fitness_centre", "name": "\u10db\u10e3\u10d5 \u10e5\u10da\u10d0\u10d1\u10d8", "name:en": "Move Club", "name:ka": "\u10db\u10e3\u10d5 \u10e5\u10da\u10d0\u10d1\u10d8", "sport": "fitness"}}, {"type": "node", "id": 11563694769, "lat": 41.7250066, "lon": 44.7788491, "tags": {"check_date": "2024-01-28", "leisure": "fitness_centre"}}, {"type": "node", "id": 11630318169, "lat": 41.6954492, "lon": 44.7039244, "tags": {"leisure": "fitness_centre"}}, {"type": "node", "id": 11688408705, "lat": 41.7505234, "lon": 44.7857807, "tags": {"addr:city": "\u10d7\u10d1\u10d8\u10da\u10d8\u10e1\u10d8", "addr:housenumber": "4", "addr:street": "\u10d7\u10dd\u10e0\u10dc\u10d8\u10d9\u10d4 \u10d4\u10e0\u10d8\u10e1\u10d7\u10d0\u10d5\u10d8\u10e1 \u10e9\u10d8\u10ee\u10d8", "check_date": "2024-12-24", "contact:facebook": "https://www.facebook.com/mamberfitness/?paipv=0&eav=AfZ9vQvo7m4ZvUREZgHOBdCHw1j-Av9cIrHvNCeaA2mFWJ7m2oD-zWhFjgVdrRZKU4I&_rdr", "leisure": "fitness_centre", "name": "Mamber fitness", "sport": "fitness"}}, {"type": "node", "id": 11734602179, "lat": 41.7167333, "lon": 44.7849622, "tags": {"check_date": "2024-03-15", "leisure": "fitness_centre", "name": "Snap Fitness"}}, {"type": "node", "id": 11734602193, "lat": 41.7168835, "lon": 44.7845707, "tags": {"check_date": "2024-03-15", "leisure": "fitness_centre", "name": "Energym"}}, {"type": "node", "id": 11758046797, "lat": 41.6896432, "lon": 44.8978667, "tags": {"check_date": "2024-03-24", "leisure": "fitness_centre", "level": "2", "name": "\u10e1\u10d0\u10d9\u10d4\u10db\u10d0\u10e2\u10d0", "name:en": "Sakemata", "name:ka": "\u10e1\u10d0\u10d9\u10d4\u10db\u10d0\u10e2\u10d0"}}, {"type": "node", "id": 11799450369, "lat": 41.7245379, "lon": 44.785779, "tags": {"leisure": "fitness_centre", "name": "\u10db\u10e4\u10ef", "name:en": "MFG"}}, {"type": "node", "id": 11809979001, "lat": 41.7100525, "lon": 44.7702686, "tags": {"check_date": "2024-04-11", "leisure": "fitness_centre"}}, {"type": "node", "id": 11831296854, "lat": 41.727284, "lon": 44.7982075, "tags": {"check_date": "2025-03-30", "leisure": "fitness_centre", "name": "Absolute"}}, {"type": "node", "id": 12026812895, "lat": 41.7209161, "lon": 44.7479878, "tags": {"check_date": "2024-07-02", "leisure": "fitness_centre", "name": "\u10de\u10e0\u10d0\u10d8\u10db \u10e4\u10d8\u10e2\u10e3", "name:en": "Prime Fit"}}, {"type": "node", "id": 12031728101, "lat": 41.750281, "lon": 44.7818262, "tags": {"check_date": "2024-07-03", "leisure": "fitness_centre", "name": "Evo Gym"}}, {"type": "node", "id": 12056555717, "lat": 41.7244329, "lon": 44.7383094}, {"type": "node", "id": 12056555718, "lat": 41.7243329, "lon": 44.7383255}, {"type": "node", "id": 12056555722, "lat": 41.7246295, "lon": 44.7383812}, {"type": "node", "id": 12056555723, "lat": 41.7246396, "lon": 44.7384937}, {"type": "node", "id": 12056561713, "lat": 41.7243607, "lon": 44.7387921}, {"type": "node", "id": 12056561714, "lat": 41.7244478, "lon": 44.7387237}, {"type": "node", "id": 12056561715, "lat": 41.7244654, "lon": 44.7386849}, {"type": "node", "id": 12056561716, "lat": 41.7245103, "lon": 44.7386777}, {"type": "node", "id": 12056894150, "lat": 41.7244561, "lon": 44.7388153}, {"type": "node", "id": 12057308583, "lat": 41.7244557, "lon": 44.7382069}, {"type": "node", "id": 12057360437, "lat": 41.7246368, "lon": 44.7384628}, {"type": "node", "id": 12057360439, "lat": 41.724519, "lon": 44.7385661}, {"type": "node", "id": 12057360447, "lat": 41.7243428, "lon": 44.7385931}, {"type": "node", "id": 12057389587, "lat": 41.724312, "lon": 44.7383289}, {"type": "node", "id": 12057389588, "lat": 41.7244494, "lon": 44.738136}, {"type": "node", "id": 12057389589, "lat": 41.7244645, "lon": 44.7383043}, {"type": "node", "id": 12057389602, "lat": 41.7245044, "lon": 44.7381272}, {"type": "node", "id": 12057389604, "lat": 41.7244373, "lon": 44.738138}, {"type": "node", "id": 12057389606, "lat": 41.7243312, "lon": 44.7385434}, {"type": "node", "id": 12057389607, "lat": 41.7242969, "lon": 44.7381606}, {"type": "node", "id": 12057389608, "lat": 41.7245569, "lon": 44.7381187}, {"type": "node", "id": 12057512202, "lat": 41.7244002, "lon": 44.738144}, {"type": "node", "id": 12060560564, "lat": 41.7243808, "lon": 44.7383178, "tags": {"door": "yes", "level": "2"}}, {"type": "node", "id": 12060609945, "lat": 41.7243197, "lon": 44.7384144, "tags": {"door": "yes", "level": "3"}}, {"type": "node", "id": 12060609946, "lat": 41.7243012, "lon": 44.7382084, "tags": {"door": "yes", "level": "3"}}, {"type": "node", "id": 12138087395, "lat": 41.7067601, "lon": 44.7737566, "tags": {"check_date": "2024-08-26", "leisure": "fitness_centre", "name": "\u10d6\u10d4\u10dc\u10d8\u10e2\u10d8", "name:en": "Zenith", "name:ka": "\u10d6\u10d4\u10dc\u10d8\u10e2\u10d8"}}, {"type": "node", "id": 12138137411, "lat": 41.7063819, "lon": 44.7787374, "tags": {"check_date": "2024-08-26", "leisure": "fitness_centre", "name": "\u10d1\u10da\u10d8\u10e1\u10e1 \u10d8\u10dd\u10d2\u10d0", "name:en": "Bliss Yoga", "name:ka": "\u10d1\u10da\u10d8\u10e1\u10e1 \u10d8\u10dd\u10d2\u10d0", "sport": "yoga"}}, {"type": "node", "id": 12166252849, "lat": 41.7163887, "lon": 44.8756689, "tags": {"leisure": "fitness_centre"}}, {"type": "node", "id": 12168378272, "lat": 41.7621055, "lon": 44.7805214, "tags": {"check_date": "2024-09-10", "leisure": "fitness_centre", "name": "\u10da\u10d8\u10dd\u10dc \u10e4\u10d8\u10e2\u10dc\u10d4\u10e1 \u10de\u10e0\u10dd", "name:en": "Lion Fitness Pro", "name:ka": "\u10da\u10d8\u10dd\u10dc \u10e4\u10d8\u10e2\u10dc\u10d4\u10e1 \u10de\u10e0\u10dd"}}, {"type": "node", "id": 12208921801, "lat": 41.7086115, "lon": 44.7897037, "tags": {"leisure": "fitness_centre", "name": "Heyday home / yoga studio", "opening_hours": "Mo-Su 09:00-23:00", "website": "https://heyday-home.com/"}}, {"type": "node", "id": 12255315902, "lat": 41.7285965, "lon": 44.723972, "tags": {"leisure": "fitness_centre", "name:en": "Colosseum Gym"}}, {"type": "node", "id": 12281784018, "lat": 41.7450035, "lon": 44.7722077, "tags": {"check_date": "2024-10-23", "leisure": "fitness_centre", "level": "1"}}, {"type": "node", "id": 12353859801, "lat": 41.7241871, "lon": 44.747918, "tags": {"leisure": "fitness_centre", "name": "\u10e1\u10dc\u10d0\u10de \u10e4\u10d8\u10e2\u10dc\u10d4\u10e1\u10d8", "name:en": "Snap Fitness", "opening_hours": "24/7"}}, {"type": "node", "id": 12361567501, "lat": 41.7307893, "lon": 44.7425024, "tags": {"leisure": "fitness_centre", "name": "360\u2070", "sport": "fitness"}}, {"type": "node", "id": 12512060274, "lat": 41.7293904, "lon": 44.8279843, "tags": {"leisure": "fitness_centre", "level": "3", "sport": "yoga;zumba;aerobics"}}, {"type": "node", "id": 12521468109, "lat": 41.7328452, "lon": 44.7223523, "tags": {"leisure": "fitness_centre", "name": "\u10e0\u10d4\u10e4\u10dd\u10e0\u10db\u10d0", "name:en": "Reform", "sport": "fitness"}}, {"type": "node", "id": 12534806901, "lat": 41.6922076, "lon": 44.8211795, "tags": {"check_date": "2025-04-05", "contact:facebook": "100094882180762", "contact:instagram": "_gym13_", "email": "goldman@gym13.ge", "leisure": "fitness_centre", "name": "GYM13", "name:en": "GYM13", "opening_hours": "Mo-Su 08:00-01:00", "phone": "+995 511 13 13 78", "website": "https://www.gym13.ge/"}}, {"type": "node", "id": 12673659055, "lat": 41.7271438, "lon": 44.7988736, "tags": {"check_date": "2025-03-17", "leisure": "fitness_centre"}}, {"type": "node", "id": 12744247001, "lat": 41.7177873, "lon": 44.7223536, "tags": {"leisure": "fitness_centre", "name:en": "Iviko's Cage", "sport": "fitness"}}, {"type": "way", "id": 519647001, "nodes": [5066620370, 5066620371, 11237987617, 11237987616, 11237987615, 5066665934, 11237987613, 11237987614, 5066620372, 11237987619, 11237987618, 5066660639, 5066620373, 11237987610, 11237987609, 11237987607, 11237987608, 11237987611, 5066620370], "tags": {"addr:city": "\u10d7\u10d1\u10d8\u10da\u10d8\u10e1\u10d8", "addr:country": "GE", "addr:housenumber": "7", "addr:street": "\u10d2\u10d8\u10dd\u10e0\u10d2\u10d8 \u10d2\u10e3\u10e0\u10d0\u10db\u10d8\u10e8\u10d5\u10d8\u10da\u10d8\u10e1 \u10e5\u10e3\u10e9\u10d0", "addr:street:en": "Giorgi Guramishvili Street", "building": "yes", "check_date": "2024-02-17", "leisure": "fitness_centre", "name": "\u10e1\u10de\u10dd\u10e0\u10e2 \u10d7\u10d0\u10d8\u10db\u10d8", "name:en": "Sport Time", "name:ka": "\u10e1\u10de\u10dd\u10e0\u10e2 \u10d7\u10d0\u10d8\u10db\u10d8"}}, {"type": "way", "id": 858394219, "nodes": [8002212201, 8002212202, 8002212203, 8002212204, 8002212205, 8002212206, 8002212201], "tags": {"addr:city": "\u10d7\u10d1\u10d8\u10da\u10d8\u10e1\u10d8", "addr:housenumber": "20", "addr:postcode": "0179", "addr:street": "\u10dc\u10d8\u10dc\u10dd \u10e0\u10d0\u10db\u10d8\u10e8\u10d5\u10d8\u10da\u10d8\u10e1 \u10e5\u10e3\u10e9\u10d0", "building": "yes", "building:levels": "4", "check_date": "2024-04-11", "contact:email": "info@oktopus.ge", "contact:facebook": "https://www.facebook.com/Oktopusfitness/", "contact:instagram": "https://www.instagram.com/oktopusfitness/", "contact:phone": "+995 32 230 18 88", "contact:website": "https://www.oktopus.ge", "contact:youtube": "https://www.youtube.com/channel/UC-aVBkNDKG9HAkneDZvtzJw", "currency:BCH": "yes", "currency:BTG": "yes", "currency:DASH": "yes", "currency:LTC": "yes", "currency:USDT": "yes", "currency:XBT": "yes", "currency:ZEC": "yes", "leisure": "fitness_centre", "name": "\u10dd\u10d9\u10e2\u10dd\u10de\u10e3\u10e1 \u10e4\u10d8\u10e2\u10dc\u10d4\u10e1 \u10d9\u10da\u10e3\u10d1\u10d8", "name:en": "Oktopus Fitness Club", "name:ka": "\u10dd\u10d9\u10e2\u10dd\u10de\u10e3\u10e1 \u10e4\u10d8\u10e2\u10dc\u10d4\u10e1 \u10d9\u10da\u10e3\u10d1\u10d8", "opening_hours": "24/7", "payment:lightning": "yes", "payment:onchain": "yes", "sport": "fitness;weightlifting;yoga"}}, {"type": "way", "id": 1301666942, "nodes": [10803314175, 12056894150]}, {"type": "way", "id": 1301667005, "nodes": [12056555718, 12060560564, 12056555717]}, {"type": "way", "id": 1301667045, "nodes": [10803314167, 10803314168, 12057360439]}, {"type": "way", "id": 1301667047, "nodes": [10803314165, 12057360437]}, {"type": "way", "id": 1301667051, "nodes": [10766773309, 10803344314, 12056555723]}, {"type": "way", "id": 1301672567, "nodes": [12056561713, 10803314197]}, {"type": "way", "id": 1301672571, "nodes": [12056561714, 10803314174]}, {"type": "way", "id": 1301672575, "nodes": [12056561716, 10803314167]}, {"type": "way", "id": 1301672576, "nodes": [10803314174, 12056561715]}, {"type": "way", "id": 1301672579, "nodes": [12056561715, 12056561716]}, {"type": "way", "id": 1301672580, "nodes": [10803314175, 12056561714]}, {"type": "way", "id": 1301672581, "nodes": [12056555723, 10803314165]}, {"type": "way", "id": 1301672582, "nodes": [12056555722, 10803314193]}, {"type": "way", "id": 1301672583, "nodes": [10803314192, 10803314193]}, {"type": "way", "id": 1301672679, "nodes": [12056555717, 12057389589]}, {"type": "way", "id": 1301715265, "nodes": [10803314197, 12056894150]}, {"type": "way", "id": 1301761909, "nodes": [10803314196, 12057360447]}, {"type": "way", "id": 1301762006, "nodes": [12057389588, 12057308583]}, {"type": "way", "id": 1301771114, "nodes": [12057360439, 10766773309]}, {"type": "way", "id": 1301771119, "nodes": [12057360447, 12056561713]}, {"type": "way", "id": 1301777359, "nodes": [12057389587, 12060609945, 12057389606]}, {"type": "way", "id": 1301777360, "nodes": [12056555718, 12057389587]}, {"type": "way", "id": 1301777362, "nodes": [12057389588, 12057389604]}, {"type": "way", "id": 1301777365, "nodes": [12057308583, 12057389589]}, {"type": "way", "id": 1301777369, "nodes": [12057389608, 10803314192]}, {"type": "way", "id": 1301777384, "nodes": [12057389604, 12057512202]}, {"type": "way", "id": 1301777401, "nodes": [12057389608, 12057389602]}, {"type": "way", "id": 1301777405, "nodes": [12057389607, 12060609946, 12057389587]}, {"type": "way", "id": 1301777406, "nodes": [12057389606, 10803314196]}, {"type": "way", "id": 1301777407, "nodes": [12057389602, 12057389588]}, {"type": "way", "id": 1301788547, "nodes": [12057512202, 12057389607]}, {"type": "way", "id": 1302124949, "nodes": [12057360437, 12056555722]}, {"type": "relation", "id": 17845187, "members": [{"type": "way", "ref": 1301762006, "role": "outer"}, {"type": "way", "ref": 1301777365, "role": "outer"}, {"type": "way", "ref": 1301672679, "role": "outer"}, {"type": "way", "ref": 1301667005, "role": "outer"}, {"type": "way", "ref": 1301777360, "role": "outer"}, {"type": "way", "ref": 1301777359, "role": "outer"}, {"type": "way", "ref": 1301777406, "role": "outer"}, {"type": "way", "ref": 1301761909, "role": "outer"}, {"type": "way", "ref": 1301771119, "role": "outer"}, {"type": "way", "ref": 1301672567, "role": "outer"}, {"type": "way", "ref": 1301715265, "role": "outer"}, {"type": "way", "ref": 1301666942, "role": "outer"}, {"type": "way", "ref": 1301672580, "role": "outer"}, {"type": "way", "ref": 1301672571, "role": "outer"}, {"type": "way", "ref": 1301672576, "role": "outer"}, {"type": "way", "ref": 1301672579, "role": "outer"}, {"type": "way", "ref": 1301672575, "role": "outer"}, {"type": "way", "ref": 1301667045, "role": "outer"}, {"type": "way", "ref": 1301771114, "role": "outer"}, {"type": "way", "ref": 1301667051, "role": "outer"}, {"type": "way", "ref": 1301672581, "role": "outer"}, {"type": "way", "ref": 1301667047, "role": "outer"}, {"type": "way", "ref": 1302124949, "role": "outer"}, {"type": "way", "ref": 1301672582, "role": "outer"}, {"type": "way", "ref": 1301672583, "role": "outer"}, {"type": "way", "ref": 1301777369, "role": "outer"}, {"type": "way", "ref": 1301777401, "role": "outer"}, {"type": "way", "ref": 1301777407, "role": "outer"}], "tags": {"check_date:currency:XBT": "2024-04-16", "contact:email": "info@oktopus.ge", "contact:facebook": "https://www.facebook.com/Oktopusfitness/", "contact:instagram": "https://www.instagram.com/oktopusfitness/", "contact:phone": "+995 32 230 18 88", "contact:website": "https://www.oktopus.ge", "contact:youtube": "https://www.youtube.com/channel/UC-aVBkNDKG9HAkneDZvtzJw", "currency:BCH": "yes", "currency:BTG": "yes", "currency:DASH": "yes", "currency:LTC": "yes", "currency:USDT": "yes", "currency:XBT": "yes", "currency:ZEC": "yes", "indoor": "room", "leisure": "fitness_centre", "level": "3", "level:ref": "2", "name": "\u10dd\u10d9\u10e2\u10dd\u10de\u10e3\u10e1", "name:en": "Oktopus", "name:ka": "\u10dd\u10d9\u10e2\u10dd\u10de\u10e3\u10e1", "opening_hours": "24/7", "payment:lightning": "yes", "payment:onchain": "yes", "type": "multipolygon"}}, {"type": "relation", "id": 17845188, "members": [{"type": "way", "ref": 1301762006, "role": "outer"}, {"type": "way", "ref": 1301777365, "role": "outer"}, {"type": "way", "ref": 1301672679, "role": "outer"}, {"type": "way", "ref": 1301667005, "role": "outer"}, {"type": "way", "ref": 1301777360, "role": "outer"}, {"type": "way", "ref": 1301777405, "role": "outer"}, {"type": "way", "ref": 1301788547, "role": "outer"}, {"type": "way", "ref": 1301777384, "role": "outer"}, {"type": "way", "ref": 1301777362, "role": "outer"}], "tags": {"indoor": "room", "leisure": "fitness_centre", "level": "3", "level:ref": "2", "name": "12 Rounds Boxing Club", "name:en": "12 Rounds Boxing Club", "sport": "boxing", "type": "multipolygon"}}]}